[
    {
        "reqId": 1,
        "phoneNumber": "0912001222",
        "cusName": "Lê Trần Hà",
        "cusAddress": null,
        "carType": 7,
        "pickingAddress": "39 Nguyễn Thị Diệu, Phường 6, Quận 3, Thành phố Hồ Chí Minh, Việt Nam",
        "lngPicking": 106.68819012648002,
        "latPicking": 10.775325859152133,
        "requestDate": null
    },
    {
        "reqId": 2,
        "phoneNumber": "0974140412",
        "cusName": "Lê Quang Dũng",
        "cusAddress": null,
        "carType": 4,
        "pickingAddress": "56/16C Hẻm C7 Hoàng Hoa Thám, Phường 15, Tân Bình, Thành phố Hồ Chí Minh, Việt Nam",
        "lngPicking": 106.64567162114685,
        "latPicking": 10.809381545584216,
        "requestDate": "2022-07-16T06:33:02"
    },
    {
        "reqId": 3,
        "phoneNumber": "0975444201",
        "cusName": "Hà Ngọc Mai",
        "cusAddress": null,
        "carType": 7,
        "pickingAddress": "94 Nguyễn Đức Thuận, Phường 13, Tân Bình, Thành phố Hồ Chí Minh, Việt Nam",
        "lngPicking": 106.64095461853718,
        "latPicking": 10.806145260934642,
        "requestDate": "2022-07-16T06:33:02"
    },
    {
        "reqId": 4,
        "phoneNumber": "0908815690",
        "cusName": "Đặng Huy Vũ",
        "cusAddress": null,
        "carType": 4,
        "pickingAddress": "80 Trần Văn Dư, Phường 13, Tân Bình, Thành phố Hồ Chí Minh, Việt Nam",
        "lngPicking": 106.64466750241219,
        "latPicking": 10.80729001561207,
        "requestDate": "2022-07-16T06:33:02"
    },
    {
        "reqId": 5,
        "phoneNumber": "0982216872",
        "cusName": "Nguyễn Quang Anh",
        "cusAddress": null,
        "carType": 7,
        "pickingAddress": "82 Ký Con, Phường Cầu Ông Lãnh, Quận 1, Thành phố Hồ Chí Minh, Việt Nam",
        "lngPicking": 106.69694691895715,
        "latPicking": 10.767784294255106,
        "requestDate": "2022-07-16T06:33:02"
    },
    {
        "reqId": 6,
        "phoneNumber": "0909456555",
        "cusName": "Cao Hưng Hà",
        "cusAddress": null,
        "carType": 4,
        "pickingAddress": "349 Trần Hưng Đạo, Cầu Kho, Quận 1, Thành phố Hồ Chí Minh, Việt Nam",
        "lngPicking": 106.68930111885254,
        "latPicking": 10.760836826670372,
        "requestDate": "2022-07-16T06:33:02"
    },
    {
        "reqId": 7,
        "phoneNumber": "0909456456",
        "cusName": "Nguyễn Gia Nguyên",
        "cusAddress": null,
        "carType": 7,
        "pickingAddress": "280 Vành Đai Trong, Bình Trị Đông B, Bình Tân, Thành phố Hồ Chí Minh, Việt Nam",
        "lngPicking": 106.61604079167957,
        "latPicking": 10.753271785407842,
        "requestDate": "2022-07-16T06:33:02"
    },
    {
        "reqId": 8,
        "phoneNumber": "0909123111",
        "cusName": "Nguyễn Ngọc Ánh Nhiên",
        "cusAddress": null,
        "carType": 4,
        "pickingAddress": "14 Hẻm 631, Bình Trị Đông B, Bình Tân, Thành phố Hồ Chí Minh, Việt Nam",
        "lngPicking": 106.61396455181735,
        "latPicking": 10.756943144660726,
        "requestDate": "2022-07-16T06:33:02"
    },
    {
        "reqId": 9,
        "phoneNumber": "0909111101",
        "cusName": "Trần Hà Nguyên An",
        "cusAddress": null,
        "carType": 7,
        "pickingAddress": "6 Đường 5C, Bình Hưng Hoà B, Bình Tân, Thành phố Hồ Chí Minh, Việt Nam",
        "lngPicking": 106.64435221872291,
        "latPicking": 10.787336851794596,
        "requestDate": "2022-07-16T06:33:02"
    },
    {
        "reqId": 10,
        "phoneNumber": "0909123123",
        "cusName": "Dương Bảo Lam",
        "cusAddress": null,
        "carType": 7,
        "pickingAddress": "1A Đ. Số 4, Bình Hưng Hoà A, Bình Tân, Thành phố Hồ Chí Minh, Việt Nam",
        "lngPicking": 106.61192386992356,
        "latPicking": 10.786100553388653,
        "requestDate": "2022-07-16T06:33:02"
    },
    {
        "reqId": 11,
        "phoneNumber": "0918774546",
        "cusName": "Nguyễn Đăng Tiên",
        "cusAddress": null,
        "carType": 4,
        "pickingAddress": "105 Lê Quang Định, Phường 14, Bình Thạnh, Thành phố Hồ Chí Minh, Việt Nam",
        "lngPicking": 106.69681214678934,
        "latPicking": 10.80671992792761,
        "requestDate": "2022-07-16T06:33:02"
    }
]
